{"status":200,"items":[{"id":5297,"name":"Брест","area":215,"telcod":162,"latitude":52.0938,"longitude":23.685,"time_zone":3,"english":"Horad brest","rajon":14723,"country":"BY","level":1,"vid":1,"post":224000,"full_name":"Брест (Беларусь, Брестская область, Брестский район)","url":"https:\/\/htmlweb.ru\/geo\/country\/BY\/city\/5297"},{"id":5298,"name":"Барановичи","area":215,"telcod":163,"latitude":53.1262,"longitude":26.0139,"time_zone":3,"english":"Baranovichi","rajon":17395,"country":"BY","level":1,"vid":1,"post":225320,"full_name":"Барановичи (Беларусь, Брестская область, Барановичский район)","url":"https:\/\/htmlweb.ru\/geo\/country\/BY\/city\/5298"},{"id":5299,"name":"Каменец","area":215,"telcod":1631,"latitude":52.4022,"longitude":23.8098,"time_zone":3,"english":"Kamyanyets","rajon":17965,"country":"BY","level":2,"vid":1,"post":225051,"full_name":"Каменец (Беларусь, Брестская область, Каменецкий район)","url":"https:\/\/htmlweb.ru\/geo\/country\/BY\/city\/5299"},{"id":5300,"name":"Пружаны","area":215,"telcod":1632,"latitude":52.5594,"longitude":24.4564,"time_zone":3,"english":"Pruzhany","rajon":14724,"country":"BY","level":2,"vid":1,"post":225140,"full_name":"Пружаны (Беларусь, Брестская область, Пружанский район)","url":"https:\/\/htmlweb.ru\/geo\/country\/BY\/city\/5300"},{"id":5301,"name":"Ляховичи","area":215,"telcod":1633,"latitude":53.0412,"longitude":26.2609,"time_zone":3,"english":"Lyakhovichi vtoryye","rajon":8795,"country":"BY","level":2,"vid":1,"post":225372,"full_name":"Ляховичи (Беларусь, Брестская область, Ляховичский район)","url":"https:\/\/htmlweb.ru\/geo\/country\/BY\/city\/5301"},{"id":5302,"name":"Жабинка","area":215,"telcod":1641,"latitude":52.1963,"longitude":24.0001,"time_zone":3,"english":"Malaya zhabinka","rajon":14725,"country":"BY","level":2,"vid":1,"post":225101,"full_name":"Жабинка (Беларусь, Брестская область, Жабинковский район)","url":"https:\/\/htmlweb.ru\/geo\/country\/BY\/city\/5302"},{"id":5303,"name":"Кобрин","area":215,"telcod":1642,"latitude":52.2145,"longitude":24.3555,"time_zone":3,"english":"Horad kobryn","rajon":14726,"country":"BY","level":2,"vid":1,"post":225874,"full_name":"Кобрин (Беларусь, Брестская область, Кобринский район)","url":"https:\/\/htmlweb.ru\/geo\/country\/BY\/city\/5303"},{"id":5304,"name":"Берёза","area":215,"telcod":1643,"latitude":52.55,"longitude":24.9667,"time_zone":3,"english":"Bereza-kostinskaya","rajon":17962,"country":"BY","level":2,"vid":1,"post":225210,"full_name":"Берёза (Беларусь, Брестская область, Березовский район)","url":"https:\/\/htmlweb.ru\/geo\/country\/BY\/city\/5304"},{"id":5305,"name":"Дрогичин","area":215,"telcod":1644,"latitude":52.193,"longitude":25.1364,"time_zone":3,"english":"Drahichyn","rajon":14728,"country":"BY","level":2,"vid":1,"post":225612,"full_name":"Дрогичин (Беларусь, Брестская область, Дрогичинский район)","url":"https:\/\/htmlweb.ru\/geo\/country\/BY\/city\/5305"},{"id":5306,"name":"Ивацевичи","area":215,"telcod":1645,"latitude":52.7095,"longitude":25.3408,"time_zone":3,"english":"Ivatsevichy","rajon":14729,"country":"BY","level":2,"vid":1,"post":22529,"full_name":"Ивацевичи (Беларусь, Брестская область, Ивацевичский район)","url":"https:\/\/htmlweb.ru\/geo\/country\/BY\/city\/5306"},{"id":5307,"name":"Ганцевичи","area":215,"telcod":1646,"latitude":52.7615,"longitude":26.4311,"time_zone":3,"english":"Gantsevichi","rajon":17395,"country":"BY","level":2,"vid":1,"post":22544,"full_name":"Ганцевичи (Беларусь, Брестская область, Барановичский район)","url":"https:\/\/htmlweb.ru\/geo\/country\/BY\/city\/5307"},{"id":5308,"name":"Лунинец","area":215,"telcod":1647,"latitude":52.247,"longitude":26.8098,"time_zone":3,"english":"Horad luninyets","rajon":17966,"country":"BY","level":2,"vid":1,"post":225644,"full_name":"Лунинец (Беларусь, Брестская область, Лунинецкий район)","url":"https:\/\/htmlweb.ru\/geo\/country\/BY\/city\/5308"},{"id":5309,"name":"Пинск","area":215,"telcod":165,"latitude":52.1116,"longitude":26.1014,"time_zone":3,"english":"Horad pinsk","rajon":8796,"country":"BY","level":2,"vid":1,"post":225710,"full_name":"Пинск (Беларусь, Брестская область, Пинский район)","url":"https:\/\/htmlweb.ru\/geo\/country\/BY\/city\/5309"},{"id":5310,"name":"Малорита","area":215,"telcod":1651,"latitude":51.7933,"longitude":24.0832,"time_zone":3,"english":"Malaryta","rajon":14730,"country":"BY","level":2,"vid":1,"post":225910,"full_name":"Малорита (Беларусь, Брестская область, Малоритский район)","url":"https:\/\/htmlweb.ru\/geo\/country\/BY\/city\/5310"},{"id":5311,"name":"Иваново","area":215,"telcod":1652,"latitude":52.1433,"longitude":25.5328,"time_zone":3,"english":"Ivanovo","rajon":17964,"country":"BY","level":2,"vid":0,"post":225800,"full_name":"Иваново (Беларусь, Брестская область, Ивановский район)","url":"https:\/\/htmlweb.ru\/geo\/country\/BY\/city\/5311"},{"id":5312,"name":"Столин","area":215,"telcod":1655,"latitude":51.8833,"longitude":26.85,"time_zone":3,"english":"Stolin","rajon":8797,"country":"BY","level":2,"vid":1,"post":225510,"full_name":"Столин (Беларусь, Брестская область, Столинский район)","url":"https:\/\/htmlweb.ru\/geo\/country\/BY\/city\/5312"},{"id":5313,"name":"Минск","area":216,"telcod":17,"latitude":53.9167,"longitude":27.55,"time_zone":3,"english":"Belor mnsk ","rajon":2662,"country":"BY","level":1,"vid":1,"post":220000,"full_name":"Минск (Беларусь, Минская область, Минский район)","url":"https:\/\/htmlweb.ru\/geo\/country\/BY\/city\/5313"},{"id":5314,"name":"Марьина Горка","area":216,"telcod":1713,"latitude":53.5085,"longitude":28.1557,"time_zone":3,"english":"Mar''ina horka","rajon":8798,"country":"BY","level":2,"vid":0,"post":222810,"full_name":"Марьина Горка (Беларусь, Минская область, Пуховичский район)","url":"https:\/\/htmlweb.ru\/geo\/country\/BY\/city\/5314"},{"id":5315,"name":"Червень","area":216,"telcod":1714,"latitude":53.7078,"longitude":28.4322,"time_zone":3,"english":"Chervyen'","rajon":18025,"country":"BY","level":2,"vid":1,"post":223210,"full_name":"Червень (Беларусь, Минская область, Червеньский район)","url":"https:\/\/htmlweb.ru\/geo\/country\/BY\/city\/5315"},{"id":5316,"name":"Березино","area":216,"telcod":1715,"latitude":53.8341,"longitude":28.9859,"time_zone":3,"english":"Byerazino","rajon":18011,"country":"BY","level":4,"vid":0,"post":223310,"full_name":"Березино (Беларусь, Минская область, Березинский район)","url":"https:\/\/htmlweb.ru\/geo\/country\/BY\/city\/5316"},{"id":5317,"name":"Дзержинск","area":216,"telcod":1716,"latitude":53.6826,"longitude":27.1393,"time_zone":3,"english":"Horad dzyarzhynsk","rajon":18014,"country":"BY","level":2,"vid":1,"post":222720,"full_name":"Дзержинск (Беларусь, Минская область, Дзержинский район)","url":"https:\/\/htmlweb.ru\/geo\/country\/BY\/city\/5317"},{"id":5318,"name":"Столбцы","area":216,"telcod":1717,"latitude":53.4794,"longitude":26.7341,"time_zone":3,"english":"Stolbtsy","rajon":18011,"country":"BY","level":0,"vid":0,"post":"","full_name":"Столбцы (Беларусь, Минская область, Березинский район)","url":"https:\/\/htmlweb.ru\/geo\/country\/BY\/city\/5318"},{"id":5319,"name":"Узда","area":216,"telcod":1718,"latitude":53.4588,"longitude":27.225,"time_zone":3,"english":"Malaya uzda","rajon":18024,"country":"BY","level":2,"vid":1,"post":223400,"full_name":"Узда (Беларусь, Минская область, Узденский район)","url":"https:\/\/htmlweb.ru\/geo\/country\/BY\/city\/5319"},{"id":5320,"name":"Копыль","area":216,"telcod":1719,"latitude":53.1523,"longitude":27.0927,"time_zone":3,"english":"Kapyl'","rajon":8800,"country":"BY","level":2,"vid":1,"post":223910,"full_name":"Копыль (Беларусь, Минская область, Копыльский район)","url":"https:\/\/htmlweb.ru\/geo\/country\/BY\/city\/5320"},{"id":5321,"name":"Солигорск","area":216,"telcod":174,"latitude":52.7879,"longitude":27.5419,"time_zone":3,"english":"Horad salihorsk","rajon":18022,"country":"BY","level":2,"vid":1,"post":223710,"full_name":"Солигорск (Беларусь, Минская область, Солигорский район)","url":"https:\/\/htmlweb.ru\/geo\/country\/BY\/city\/5321"},{"id":5322,"name":"Борисов","area":216,"telcod":177,"latitude":54.2212,"longitude":28.5129,"time_zone":3,"english":"Horad barysaw","rajon":18012,"country":"BY","level":2,"vid":1,"post":222120,"full_name":"Борисов (Беларусь, Минская область, Борисовский район)","url":"https:\/\/htmlweb.ru\/geo\/country\/BY\/city\/5322"},{"id":5323,"name":"Несвиж","area":216,"telcod":1770,"latitude":53.2188,"longitude":26.6841,"time_zone":3,"english":"Nesvizh","rajon":18013,"country":"BY","level":4,"vid":0,"post":"222603,222620","full_name":"Несвиж (Беларусь, Минская область, Воложинский район)","url":"https:\/\/htmlweb.ru\/geo\/country\/BY\/city\/5323"},{"id":5324,"name":"Вилейка","area":216,"telcod":1771,"latitude":54.4989,"longitude":26.9337,"time_zone":3,"english":"Novaya vileyka","rajon":17479,"country":"BY","level":2,"vid":1,"post":222410,"full_name":"Вилейка (Беларусь, Минская область, Вилейский район)","url":"https:\/\/htmlweb.ru\/geo\/country\/BY\/city\/5324"},{"id":5325,"name":"Воложин","area":216,"telcod":1772,"latitude":54.0833,"longitude":26.5167,"time_zone":3,"english":"Volozhin","rajon":18013,"country":"BY","level":0,"vid":0,"post":"","full_name":"Воложин (Беларусь, Минская область, Воложинский район)","url":"https:\/\/htmlweb.ru\/geo\/country\/BY\/city\/5325"},{"id":5326,"name":"Молодечно","area":216,"telcod":1773,"latitude":54.3127,"longitude":26.8522,"time_zone":3,"english":"Horad maladzyechna","rajon":17959,"country":"BY","level":2,"vid":1,"post":222310,"full_name":"Молодечно (Беларусь, Минская область, Молодеченский район)","url":"https:\/\/htmlweb.ru\/geo\/country\/BY\/city\/5326"},{"id":5327,"name":"Логойск","area":216,"telcod":1774,"latitude":54.2039,"longitude":27.8459,"time_zone":3,"english":"Lahoysk","rajon":18017,"country":"BY","level":2,"vid":1,"post":223141,"full_name":"Логойск (Беларусь, Минская область, Логойский район)","url":"https:\/\/htmlweb.ru\/geo\/country\/BY\/city\/5327"},{"id":5328,"name":"Жодино","area":216,"telcod":1775,"latitude":54.097,"longitude":28.3392,"time_zone":3,"english":"Zhodino","rajon":18014,"country":"BY","level":2,"vid":0,"post":222161,"full_name":"Жодино (Беларусь, Минская область, Дзержинский район)","url":"https:\/\/htmlweb.ru\/geo\/country\/BY\/city\/5328"},{"id":5329,"name":"Смолевичи","area":216,"telcod":1776,"latitude":54.0228,"longitude":28.0805,"time_zone":3,"english":"Horad smalyavichy","rajon":18013,"country":"BY","level":2,"vid":1,"post":222210,"full_name":"Смолевичи (Беларусь, Минская область, Воложинский район)","url":"https:\/\/htmlweb.ru\/geo\/country\/BY\/city\/5329"},{"id":5330,"name":"Старые Дороги","area":216,"telcod":1792,"latitude":53.0405,"longitude":28.3135,"time_zone":3,"english":"Staryye dorogi","rajon":18022,"country":"BY","level":2,"vid":1,"post":222910,"full_name":"Старые Дороги (Беларусь, Минская область, Солигорский район)","url":"https:\/\/htmlweb.ru\/geo\/country\/BY\/city\/5330"},{"id":5331,"name":"Клецк","area":216,"telcod":1793,"latitude":53.0696,"longitude":26.6368,"time_zone":3,"english":"Klyetsk","rajon":18015,"country":"BY","level":2,"vid":1,"post":222531,"full_name":"Клецк (Беларусь, Минская область, Клецкий район)","url":"https:\/\/htmlweb.ru\/geo\/country\/BY\/city\/5331"},{"id":5332,"name":"Любань","area":216,"telcod":1794,"latitude":52.7921,"longitude":27.9984,"time_zone":3,"english":"Lyuban'","rajon":2662,"country":"BY","level":2,"vid":1,"post":222451,"full_name":"Любань (Беларусь, Минская область, Минский район)","url":"https:\/\/htmlweb.ru\/geo\/country\/BY\/city\/5332"},{"id":5333,"name":"Слуцк","area":216,"telcod":1795,"latitude":53.0167,"longitude":27.55,"time_zone":3,"english":"Horad slutsk","rajon":18016,"country":"BY","level":2,"vid":1,"post":223610,"full_name":"Слуцк (Беларусь, Минская область, Крупский район)","url":"https:\/\/htmlweb.ru\/geo\/country\/BY\/city\/5333"},{"id":5334,"name":"Крупки","area":216,"telcod":1796,"latitude":54.3203,"longitude":29.1351,"time_zone":3,"english":"Novaya krupka","rajon":18011,"country":"BY","level":2,"vid":1,"post":222010,"full_name":"Крупки (Беларусь, Минская область, Березинский район)","url":"https:\/\/htmlweb.ru\/geo\/country\/BY\/city\/5334"},{"id":5335,"name":"Мядель","area":216,"telcod":1797,"latitude":54.8756,"longitude":26.9386,"time_zone":3,"english":"Myadzyel","rajon":8801,"country":"BY","level":2,"vid":1,"post":222380,"full_name":"Мядель (Беларусь, Минская область, Мядельский район)","url":"https:\/\/htmlweb.ru\/geo\/country\/BY\/city\/5335"},{"id":5336,"name":"Витебск","area":217,"telcod":212,"latitude":55.1915,"longitude":30.207,"time_zone":3,"english":"Horad vitsyebsk","rajon":17392,"country":"BY","level":1,"vid":1,"post":210000,"full_name":"Витебск (Беларусь, Витебская область, Витебский район)","url":"https:\/\/htmlweb.ru\/geo\/country\/BY\/city\/5336"},{"id":5337,"name":"Шумилино","area":217,"telcod":2130,"latitude":55.3002,"longitude":29.6172,"time_zone":3,"english":"Shumilina","rajon":17980,"country":"BY","level":2,"vid":0,"post":211259,"full_name":"Шумилино (Беларусь, Витебская область, Шумилинский район)","url":"https:\/\/htmlweb.ru\/geo\/country\/BY\/city\/5337"},{"id":5338,"name":"Бешенковичи","area":217,"telcod":2131,"latitude":55.0434,"longitude":29.4565,"time_zone":3,"english":"Byeshankovichy","rajon":17967,"country":"BY","level":4,"vid":0,"post":211350,"full_name":"Бешенковичи (Беларусь, Витебская область, Бешенковичский район)","url":"https:\/\/htmlweb.ru\/geo\/country\/BY\/city\/5338"},{"id":5339,"name":"Лепель","area":217,"telcod":2132,"latitude":54.8794,"longitude":28.6928,"time_zone":3,"english":"Horad lyepyel'","rajon":17492,"country":"BY","level":4,"vid":0,"post":"","full_name":"Лепель (Беларусь, Витебская область, Лепельский район)","url":"https:\/\/htmlweb.ru\/geo\/country\/BY\/city\/5339"},{"id":5340,"name":"Чашники","area":217,"telcod":2133,"latitude":54.863,"longitude":29.1576,"time_zone":3,"english":"Chashniki","rajon":17978,"country":"BY","level":2,"vid":1,"post":211156,"full_name":"Чашники (Беларусь, Витебская область, Чашникский район)","url":"https:\/\/htmlweb.ru\/geo\/country\/BY\/city\/5340"},{"id":5341,"name":"Сенно","area":217,"telcod":2135,"latitude":54.8131,"longitude":29.7063,"time_zone":3,"english":"Syanno","rajon":8802,"country":"BY","level":2,"vid":1,"post":211117,"full_name":"Сенно (Беларусь, Витебская область, Сенненский район)","url":"https:\/\/htmlweb.ru\/geo\/country\/BY\/city\/5341"},{"id":5342,"name":"Толочин","area":217,"telcod":2136,"latitude":54.4167,"longitude":29.7,"time_zone":3,"english":"Staryy tolochin","rajon":17976,"country":"BY","level":2,"vid":1,"post":211070,"full_name":"Толочин (Беларусь, Витебская область, Толочинский район)","url":"https:\/\/htmlweb.ru\/geo\/country\/BY\/city\/5342"},{"id":5343,"name":"Дубровно","area":217,"telcod":2137,"latitude":54.5667,"longitude":30.6833,"time_zone":3,"english":"Dubrowna","rajon":17967,"country":"BY","level":2,"vid":1,"post":211587,"full_name":"Дубровно (Беларусь, Витебская область, Бешенковичский район)","url":"https:\/\/htmlweb.ru\/geo\/country\/BY\/city\/5343"},{"id":5345,"name":"Городок","area":217,"telcod":2139,"latitude":55.4667,"longitude":29.9833,"time_zone":3,"english":"Gorodok","rajon":17967,"country":"BY","level":4,"vid":0,"post":211573,"full_name":"Городок (Беларусь, Витебская область, Бешенковичский район)","url":"https:\/\/htmlweb.ru\/geo\/country\/BY\/city\/5345"},{"id":5346,"name":"Полоцк","area":217,"telcod":214,"latitude":55.4848,"longitude":28.7758,"time_zone":3,"english":"Horad polatsk","rajon":17960,"country":"BY","level":2,"vid":1,"post":211400,"full_name":"Полоцк (Беларусь, Витебская область, Полоцкий район)","url":"https:\/\/htmlweb.ru\/geo\/country\/BY\/city\/5346"},{"id":5347,"name":"Новополоцк","area":217,"telcod":214,"latitude":55.5304,"longitude":28.6562,"time_zone":3,"english":"Novopolotsk","rajon":17970,"country":"BY","level":4,"vid":0,"post":211440,"full_name":"Новополоцк (Беларусь, Витебская область, Докшицкий район)","url":"https:\/\/htmlweb.ru\/geo\/country\/BY\/city\/5347"}],"limit":16,"balans":0}