{"status":200,"items":[{"id":13347,"name":"Бельцы","area":9924,"telcod":231,"latitude":47.7617,"longitude":27.9289,"time_zone":2,"english":"Balti","rajon":0,"country":"MD","level":1,"vid":0,"post":3100,"full_name":"Бельцы (Молдова, Республика, Белецы)","url":"https:\/\/htmlweb.ru\/geo\/country\/MD\/city\/13347"},{"id":13348,"name":"Бендеры","area":10280,"telcod":552,"latitude":46.8306,"longitude":29.4711,"time_zone":2,"english":"Bender","rajon":0,"country":"MD","level":1,"vid":0,"post":"MD-3200","full_name":"Бендеры (Молдова, Республика, Бендеры)","url":"https:\/\/htmlweb.ru\/geo\/country\/MD\/city\/13348"},{"id":13349,"name":"Бричаны","area":8661,"telcod":247,"latitude":48.3628,"longitude":27.085,"time_zone":2,"english":"Briceni","rajon":0,"country":"MD","level":4,"vid":0,"post":"MD4701","full_name":"Бричаны (Молдова, Республика, Леовский район)","url":"https:\/\/htmlweb.ru\/geo\/country\/MD\/city\/13349"},{"id":13350,"name":"Кишинев","area":10255,"telcod":223733,"latitude":47.0056,"longitude":28.8575,"time_zone":2,"english":"Chisinau","rajon":0,"country":"MD","level":1,"vid":1,"post":"MD-2000","full_name":"Кишинев (Молдова, Республика, Кишинев муниципия)","url":"https:\/\/htmlweb.ru\/geo\/country\/MD\/city\/13350"},{"id":13351,"name":"Рыбница","area":10257,"telcod":555,"latitude":47.7664,"longitude":29.0011,"time_zone":2,"english":"Ribnitsa","rajon":0,"country":"MD","level":4,"vid":0,"post":"MD5501-MD5509","full_name":"Рыбница (Молдова, Республика, АТО Приднестровье)","url":"https:\/\/htmlweb.ru\/geo\/country\/MD\/city\/13351"},{"id":13352,"name":"Тирасполь","area":10266,"telcod":533,"latitude":46.8403,"longitude":29.6433,"time_zone":2,"english":"Tiraspolul nou","rajon":0,"country":"MD","level":1,"vid":0,"post":3300,"full_name":"Тирасполь (Молдова, Республика, Резинский)","url":"https:\/\/htmlweb.ru\/geo\/country\/MD\/city\/13352"},{"id":19859,"name":"Анений Ной","area":0,"telcod":265,"latitude":46.9159,"longitude":29.2318,"time_zone":3,"english":"Anenii noi","rajon":0,"country":"MD","level":0,"vid":0,"post":"MD6501","full_name":"Анений Ной (Молдова, Республика)","url":"https:\/\/htmlweb.ru\/geo\/country\/MD\/city\/19859"},{"id":19861,"name":"Басарабяска","area":0,"telcod":297,"latitude":47.2024,"longitude":28.4661,"time_zone":3,"english":"Basarabeasca","rajon":0,"country":"MD","level":2,"vid":1,"post":"MD6701","full_name":"Басарабяска (Молдова, Республика)","url":"https:\/\/htmlweb.ru\/geo\/country\/MD\/city\/19861"},{"id":19863,"name":"Бричень","area":10262,"telcod":247,"latitude":47.2024,"longitude":28.4661,"time_zone":3,"english":"Briceni","rajon":0,"country":"MD","level":0,"vid":0,"post":"","full_name":"Бричень (Молдова, Республика, Сынжерейский)","url":"https:\/\/htmlweb.ru\/geo\/country\/MD\/city\/19863"},{"id":19865,"name":"Васкауц","area":10260,"telcod":30,"latitude":47.9564,"longitude":28.51,"time_zone":3,"english":"Vascauti","rajon":0,"country":"MD","level":0,"vid":0,"post":"MD6652","full_name":"Васкауц (Молдова, Республика, Флорештский)","url":"https:\/\/htmlweb.ru\/geo\/country\/MD\/city\/19865"},{"id":19867,"name":"Вертюжень","area":10260,"telcod":30,"latitude":47.2024,"longitude":28.4661,"time_zone":3,"english":"Vertuzhen","rajon":0,"country":"MD","level":4,"vid":0,"post":"","full_name":"Вертюжень (Молдова, Республика, Флорештский)","url":"https:\/\/htmlweb.ru\/geo\/country\/MD\/city\/19867"},{"id":19869,"name":"Вулкэнешть","area":8662,"telcod":293,"latitude":47.2024,"longitude":28.4661,"time_zone":3,"english":"Vulcanesti","rajon":0,"country":"MD","level":4,"vid":0,"post":"","full_name":"Вулкэнешть (Молдова, Республика, Гагаузия)","url":"https:\/\/htmlweb.ru\/geo\/country\/MD\/city\/19869"},{"id":19871,"name":"Глодень","area":0,"telcod":249,"latitude":47.2024,"longitude":28.4661,"time_zone":3,"english":"Glodeniy","rajon":0,"country":"MD","level":0,"vid":0,"post":"","full_name":"Глодень (Молдова, Республика)","url":"https:\/\/htmlweb.ru\/geo\/country\/MD\/city\/19871"},{"id":19873,"name":"Григориополь","area":10257,"telcod":40,"latitude":47.1459,"longitude":29.301,"time_zone":2,"english":"Grigoriopol","rajon":0,"country":"MD","level":4,"vid":0,"post":"MD4001","full_name":"Григориополь (Молдова, Республика, АТО Приднестровье)","url":"https:\/\/htmlweb.ru\/geo\/country\/MD\/city\/19873"},{"id":19875,"name":"Днестровск","area":8660,"telcod":219,"latitude":46.6222,"longitude":29.9133,"time_zone":2,"english":"Pridnestrovsk","rajon":0,"country":"MD","level":4,"vid":0,"post":"MD3352","full_name":"Днестровск (Молдова, Республика, Тирасполь)","url":"https:\/\/htmlweb.ru\/geo\/country\/MD\/city\/19875"},{"id":19877,"name":"Дондушень","area":10252,"telcod":251,"latitude":47.2024,"longitude":28.4661,"time_zone":3,"english":"Donduseni","rajon":0,"country":"MD","level":0,"vid":0,"post":"","full_name":"Дондушень (Молдова, Республика, Окницкий)","url":"https:\/\/htmlweb.ru\/geo\/country\/MD\/city\/19877"},{"id":19879,"name":"Дрокия","area":10274,"telcod":252,"latitude":48.1142,"longitude":27.8083,"time_zone":2,"english":"Drochia","rajon":41939,"country":"MD","level":1,"vid":0,"post":"MD5200","full_name":"Дрокия (Молдова, Республика, Дрокиевский, Дрокиевский район)","url":"https:\/\/htmlweb.ru\/geo\/country\/MD\/city\/19879"},{"id":19881,"name":"Дубэсарь","area":10257,"telcod":215,"latitude":47.2667,"longitude":29.1564,"time_zone":2,"english":"Dubasari","rajon":37023,"country":"MD","level":2,"vid":1,"post":"MD-4500&#91,3&#93","full_name":"Дубэсарь (Молдова, Республика, АТО Приднестровье, Григориопольский район)","url":"https:\/\/htmlweb.ru\/geo\/country\/MD\/city\/19881"},{"id":19883,"name":"Единец","area":8465,"telcod":246,"latitude":48.1681,"longitude":27.305,"time_zone":2,"english":"Edinet","rajon":0,"country":"MD","level":1,"vid":0,"post":"MD4601","full_name":"Единец (Молдова, Республика, Единецкий район)","url":"https:\/\/htmlweb.ru\/geo\/country\/MD\/city\/19883"},{"id":19889,"name":"Кантемир","area":9416,"telcod":273,"latitude":46.2781,"longitude":28.2008,"time_zone":2,"english":"Cantemir","rajon":40860,"country":"MD","level":1,"vid":0,"post":"MD-7301","full_name":"Кантемир (Молдова, Республика, Кантемирский район, Кантемирский район)","url":"https:\/\/htmlweb.ru\/geo\/country\/MD\/city\/19889"},{"id":19893,"name":"Комрат","area":8662,"telcod":298,"latitude":46.3003,"longitude":28.6572,"time_zone":2,"english":"Comrat","rajon":0,"country":"MD","level":1,"vid":0,"post":"MD380","full_name":"Комрат (Молдова, Республика, Гагаузия)","url":"https:\/\/htmlweb.ru\/geo\/country\/MD\/city\/19893"},{"id":19895,"name":"Криулень","area":10266,"telcod":248,"latitude":47.2167,"longitude":29.1614,"time_zone":2,"english":"Criuleni","rajon":0,"country":"MD","level":2,"vid":0,"post":"MD480","full_name":"Криулень (Молдова, Республика, Резинский)","url":"https:\/\/htmlweb.ru\/geo\/country\/MD\/city\/19895"},{"id":19899,"name":"Кэинарь","area":0,"telcod":277,"latitude":47.2024,"longitude":28.4661,"time_zone":3,"english":"Cainarii vechi","rajon":0,"country":"MD","level":4,"vid":0,"post":"","full_name":"Кэинарь (Молдова, Республика)","url":"https:\/\/htmlweb.ru\/geo\/country\/MD\/city\/19899"},{"id":19901,"name":"Кэлэраши","area":8466,"telcod":244,"latitude":44.2,"longitude":27.3333,"time_zone":3,"english":"Calarasi","rajon":0,"country":"MD","level":0,"vid":0,"post":"","full_name":"Кэлэраши (Молдова, Республика, Валахия)","url":"https:\/\/htmlweb.ru\/geo\/country\/MD\/city\/19901"},{"id":19903,"name":"Кэушени","area":0,"telcod":243,"latitude":47.2024,"longitude":28.4661,"time_zone":3,"english":"Causeni","rajon":0,"country":"MD","level":0,"vid":0,"post":"","full_name":"Кэушени (Молдова, Республика)","url":"https:\/\/htmlweb.ru\/geo\/country\/MD\/city\/19903"},{"id":19905,"name":"Леова","area":8661,"telcod":263,"latitude":46.4786,"longitude":28.2553,"time_zone":2,"english":"Leova","rajon":0,"country":"MD","level":1,"vid":0,"post":"MD6301","full_name":"Леова (Молдова, Республика, Леовский район)","url":"https:\/\/htmlweb.ru\/geo\/country\/MD\/city\/19905"},{"id":19911,"name":"Нижние Кухурешты","area":10260,"telcod":30,"latitude":null,"longitude":null,"time_zone":3,"english":"Nizhni kuhureshti","rajon":0,"country":"MD","level":0,"vid":0,"post":"","full_name":"Нижние Кухурешты (Молдова, Республика, Флорештский)","url":"https:\/\/htmlweb.ru\/geo\/country\/MD\/city\/19911"},{"id":19913,"name":"Ниспорень","area":0,"telcod":264,"latitude":47.2024,"longitude":28.4661,"time_zone":3,"english":"Nisporeni","rajon":0,"country":"MD","level":0,"vid":0,"post":"","full_name":"Ниспорень (Молдова, Республика)","url":"https:\/\/htmlweb.ru\/geo\/country\/MD\/city\/19913"},{"id":19915,"name":"Окница","area":10252,"telcod":271,"latitude":48.4167,"longitude":27.4833,"time_zone":2,"english":"Ocnita","rajon":48993,"country":"MD","level":1,"vid":0,"post":"MD710","full_name":"Окница (Молдова, Республика, Окницкий, Окницкий район)","url":"https:\/\/htmlweb.ru\/geo\/country\/MD\/city\/19915"},{"id":19917,"name":"Орхей","area":10259,"telcod":235,"latitude":47.3831,"longitude":28.8231,"time_zone":2,"english":"Orhei","rajon":57567,"country":"MD","level":2,"vid":0,"post":"MD3500","full_name":"Орхей (Молдова, Республика, Оргеевский, Оргеевский)","url":"https:\/\/htmlweb.ru\/geo\/country\/MD\/city\/19917"},{"id":19919,"name":"Резина","area":10266,"telcod":254,"latitude":47.6928,"longitude":28.8537,"time_zone":2,"english":"Rezina sat","rajon":46340,"country":"MD","level":2,"vid":0,"post":"MD5400","full_name":"Резина (Молдова, Республика, Резинский, Резинский район)","url":"https:\/\/htmlweb.ru\/geo\/country\/MD\/city\/19919"},{"id":19921,"name":"Рышкань","area":0,"telcod":256,"latitude":47.2024,"longitude":28.4661,"time_zone":3,"english":"Riscani","rajon":0,"country":"MD","level":0,"vid":0,"post":"","full_name":"Рышкань (Молдова, Республика)","url":"https:\/\/htmlweb.ru\/geo\/country\/MD\/city\/19921"},{"id":19927,"name":"Сорока","area":0,"telcod":230,"latitude":47.2024,"longitude":28.4661,"time_zone":2,"english":"Soroka","rajon":8303,"country":"MD","level":0,"vid":0,"post":"","full_name":"Сорока (Молдова, Республика, Гусятинский район)","url":"https:\/\/htmlweb.ru\/geo\/country\/MD\/city\/19927"},{"id":19929,"name":"Стрэшень","area":10270,"telcod":237,"latitude":47.134,"longitude":28.5274,"time_zone":3,"english":"Straseni","rajon":31278,"country":"MD","level":2,"vid":0,"post":"MD3701-MD3702","full_name":"Стрэшень (Молдова, Республика, Страшенский, Страшенский район)","url":"https:\/\/htmlweb.ru\/geo\/country\/MD\/city\/19929"},{"id":19931,"name":"Сынжерей","area":0,"telcod":262,"latitude":47.2024,"longitude":28.4661,"time_zone":3,"english":"Singereii noi","rajon":0,"country":"MD","level":4,"vid":0,"post":"","full_name":"Сынжерей (Молдова, Республика)","url":"https:\/\/htmlweb.ru\/geo\/country\/MD\/city\/19931"},{"id":19933,"name":"Тараклия","area":10269,"telcod":294,"latitude":45.9139,"longitude":28.5827,"time_zone":3,"english":"Taraclia","rajon":0,"country":"MD","level":4,"vid":0,"post":"MD7401-MD7402","full_name":"Тараклия (Молдова, Республика, Тараклийский)","url":"https:\/\/htmlweb.ru\/geo\/country\/MD\/city\/19933"},{"id":19935,"name":"Теленешть","area":10263,"telcod":258,"latitude":47.2024,"longitude":28.4661,"time_zone":3,"english":"Telenesti","rajon":76393,"country":"MD","level":2,"vid":0,"post":"MD5800","full_name":"Теленешть (Молдова, Республика, Теленештский, Теленештский)","url":"https:\/\/htmlweb.ru\/geo\/country\/MD\/city\/19935"},{"id":19939,"name":"Унгены","area":0,"telcod":36,"latitude":47.2024,"longitude":28.4661,"time_zone":3,"english":"Ungheni","rajon":0,"country":"MD","level":2,"vid":0,"post":"MD3600","full_name":"Унгены (Молдова, Республика)","url":"https:\/\/htmlweb.ru\/geo\/country\/MD\/city\/19939"},{"id":19941,"name":"Флорешты","area":10268,"telcod":50,"latitude":47.8999,"longitude":28.3718,"time_zone":2,"english":"Floresti","rajon":0,"country":"MD","level":1,"vid":1,"post":"MD5000","full_name":"Флорешты (Молдова, Республика, Унгенский)","url":"https:\/\/htmlweb.ru\/geo\/country\/MD\/city\/19941"},{"id":19943,"name":"Фэлешть","area":0,"telcod":259,"latitude":47.2024,"longitude":28.4661,"time_zone":3,"english":"Falestii noi","rajon":0,"country":"MD","level":4,"vid":0,"post":"","full_name":"Фэлешть (Молдова, Республика)","url":"https:\/\/htmlweb.ru\/geo\/country\/MD\/city\/19943"},{"id":19945,"name":"Хынчешть","area":10254,"telcod":269,"latitude":47.2024,"longitude":28.4661,"time_zone":3,"english":"Hyncesty","rajon":0,"country":"MD","level":0,"vid":0,"post":"","full_name":"Хынчешть (Молдова, Республика, Фалештский)","url":"https:\/\/htmlweb.ru\/geo\/country\/MD\/city\/19945"},{"id":19947,"name":"Чадыр-Лунга","area":8662,"telcod":291,"latitude":46.055,"longitude":28.8303,"time_zone":2,"english":"Chadyr-lunga","rajon":0,"country":"MD","level":4,"vid":0,"post":"MD6101-MD6104","full_name":"Чадыр-Лунга (Молдова, Республика, Гагаузия)","url":"https:\/\/htmlweb.ru\/geo\/country\/MD\/city\/19947"},{"id":19951,"name":"Чимишлия","area":10261,"telcod":241,"latitude":46.52,"longitude":28.7842,"time_zone":2,"english":"Cimislia","rajon":65272,"country":"MD","level":1,"vid":1,"post":"MD4101","full_name":"Чимишлия (Молдова, Республика, Чимишлийский, Чимишлийский)","url":"https:\/\/htmlweb.ru\/geo\/country\/MD\/city\/19951"},{"id":19953,"name":"Шолдэнешть","area":10265,"telcod":272,"latitude":47.8167,"longitude":28.8,"time_zone":2,"english":"Soldanesti","rajon":0,"country":"MD","level":2,"vid":0,"post":"","full_name":"Шолдэнешть (Молдова, Республика, Ниспоренский)","url":"https:\/\/htmlweb.ru\/geo\/country\/MD\/city\/19953"},{"id":19955,"name":"Штефан-Водэ","area":10279,"telcod":242,"latitude":46.5153,"longitude":29.6631,"time_zone":3,"english":"Stefan-voda","rajon":0,"country":"MD","level":0,"vid":0,"post":"MD4201","full_name":"Штефан-Водэ (Молдова, Республика, Штефан-Водский)","url":"https:\/\/htmlweb.ru\/geo\/country\/MD\/city\/19955"},{"id":19957,"name":"Яловень","area":0,"telcod":268,"latitude":47.2024,"longitude":28.4661,"time_zone":3,"english":"Ialoveni","rajon":0,"country":"MD","level":0,"vid":0,"post":"","full_name":"Яловень (Молдова, Республика)","url":"https:\/\/htmlweb.ru\/geo\/country\/MD\/city\/19957"},{"id":30467,"name":"Плотина","area":9416,"telcod":"","latitude":46.2999,"longitude":28.4565,"time_zone":3,"english":"Plotina","rajon":0,"country":"MD","level":0,"vid":0,"post":"","full_name":"Плотина (Молдова, Республика, Кантемирский район)","url":"https:\/\/htmlweb.ru\/geo\/country\/MD\/city\/30467"},{"id":34655,"name":"Новые Анены","area":9641,"telcod":"","latitude":46.8833,"longitude":29.2167,"time_zone":2,"english":"Anenii noi","rajon":47854,"country":"MD","level":1,"vid":1,"post":"MD650","full_name":"Новые Анены (Молдова, Республика, Новоаненский район, Новоаненский район)","url":"https:\/\/htmlweb.ru\/geo\/country\/MD\/city\/34655"},{"id":70560,"name":"Твардица","area":10269,"telcod":"","latitude":46.15,"longitude":28.9667,"time_zone":2,"english":"Tvardica","rajon":0,"country":"MD","level":4,"vid":0,"post":"MD7422","full_name":"Твардица (Молдова, Республика, Тараклийский)","url":"https:\/\/htmlweb.ru\/geo\/country\/MD\/city\/70560"},{"id":72382,"name":"Бессарабка","area":0,"telcod":"","latitude":46.3333,"longitude":28.9667,"time_zone":3,"english":"Bessarabka","rajon":8764,"country":"MD","level":0,"vid":0,"post":"","full_name":"Бессарабка (Молдова, Республика, Кегичевский район)","url":"https:\/\/htmlweb.ru\/geo\/country\/MD\/city\/72382"}],"limit":8,"balans":0}